[
    {
      "id": 1,
      "nombre": "Concierto en el Parque",
      "descripcion": "Disfruta de una tarde de música en vivo en el parque central",
      "coordenadas": {
        "latitud": 40.712776,
        "longitud": -74.005974
      },
      "fecha_inicio": "2024-04-15T18:00:00Z"
    },
    {
      "id": 2,
      "nombre": "Feria de Arte Local",
      "descripcion": "Explora las obras de artistas locales en nuestra feria de arte",
      "coordenadas": {
        "latitud": 34.052235,
        "longitud": -118.243683
      },
      "fecha_inicio": "2024-04-20T11:00:00Z"
    },
    {
      "id": 3,
      "nombre": "Charla sobre Medio Ambiente",
      "descripcion": "Aprende sobre la importancia de cuidar nuestro entorno",
      "coordenadas": {
        "latitud": 51.507351,
        "longitud": -0.127758
      },
      "fecha_inicio": "2024-04-25T15:30:00Z"
    },
    {
      "id": 4,
      "nombre": "Exhibición de Autos Clásicos",
      "descripcion": "Ven a admirar una colección única de autos clásicos",
      "coordenadas": {
        "latitud": 48.856613,
        "longitud": 2.352222
      },
      "fecha_inicio": "2024-05-05T10:00:00Z"
    },
    {
      "id": 5,
      "nombre": "Festival de Comida Internacional",
      "descripcion": "Prueba deliciosos platillos de diferentes partes del mundo",
      "coordenadas": {
        "latitud": -22.9068,
        "longitud": -43.1729
      },
      "fecha_inicio": "2024-05-10T17:00:00Z"
    }
  ]
  